[{"id":0,"name":"Cổng chào Bùi Viện","description":"Nơi đón khách tham quan chính thức của toàn phố.","imageUrl":"/images/zones/654b7fd5-4aa8-4e17-b2d2-2f149226d20f.jpg","latitude":10.76529303,"longitude":106.69017903,"radius":3,"orderIndex":1,"zoneType":3,"shopId":null,"isActive":true,"isMain":true,"isLocked":false,"isHidden":false,"lockReason":null,"createdAt":"2026-04-04T12:18:06.967","updatedAt":"2026-04-05T04:02:04.053"},{"id":1,"name":"Bún chả 145","description":"Quán bún chả nổi tiếng, đông khách và dễ nhận diện ngay mặt tiền Bùi Viện.","imageUrl":"/images/zones/d90c58dd-591c-483f-9637-0ab95aa21ca4.png","latitude":10.76636877,"longitude":106.69170119,"radius":4,"orderIndex":2,"zoneType":4,"shopId":0,"isActive":true,"isMain":true,"isLocked":false,"isHidden":false,"lockReason":null,"createdAt":"2026-04-04T12:18:06.967","updatedAt":"2026-04-05T04:02:25.393"},{"id":2,"name":"Crazy Buffalo Bar","description":"Biểu tượng nổi tiếng với mô hình trâu rừng.","imageUrl":"/images/zones/20de1a14-1fc2-464b-9d31-d447416f83cb.jpg","latitude":10.76740827,"longitude":106.69404209,"radius":4,"orderIndex":3,"zoneType":0,"shopId":1,"isActive":true,"isMain":false,"isLocked":false,"isHidden":false,"lockReason":null,"createdAt":"2026-04-04T12:18:06.967","updatedAt":"2026-04-05T04:02:48.28"},{"id":4,"name":"Go2 Bar","description":"Bar nổi tiếng với bia rẻ và nhạc sôi động trên Bùi Viện.","imageUrl":"/images/zones/0d869410-29ae-4eb4-a36c-7be2521ca7b9.jpg","latitude":10.76737929,"longitude":106.69396698,"radius":4,"orderIndex":5,"zoneType":0,"shopId":2,"isActive":true,"isMain":false,"isLocked":false,"isHidden":false,"lockReason":null,"createdAt":"2026-04-04T12:18:06.967","updatedAt":"2026-04-05T04:02:59.15"},{"id":5,"name":"Boheme Pub","description":"Điểm đến cho sinh viên quẩy banh nóc.","imageUrl":"/images/zones/8d0d9831-1980-4378-85db-3a5db304023a.jpg","latitude":10.76754864,"longitude":106.69388717,"radius":4,"orderIndex":6,"zoneType":0,"shopId":3,"isActive":true,"isMain":false,"isLocked":false,"isHidden":false,"lockReason":null,"createdAt":"2026-04-04T12:18:06.967","updatedAt":"2026-04-05T04:03:09.273"},{"id":6,"name":"Sahara Beer Club","description":"Trải nghiệm bia hơi và nhạc DJ.","imageUrl":"/images/zones/c47a85fd-f479-4b1c-b51e-b0c20bf01bcb.jpg","latitude":10.76666629,"longitude":106.69235500,"radius":4,"orderIndex":7,"zoneType":0,"shopId":4,"isActive":true,"isMain":false,"isLocked":false,"isHidden":false,"lockReason":null,"createdAt":"2026-04-04T12:18:06.967","updatedAt":"2026-04-05T04:03:21.95"},{"id":7,"name":"Miss Saigon","description":"Phong cách sang trọng với âm nhạc hiện đại.","imageUrl":"/images/zones/7f557505-963c-4499-b627-ee125ed22dfb.jpg","latitude":10.76671263,"longitude":106.69229798,"radius":5,"orderIndex":8,"zoneType":0,"shopId":5,"isActive":true,"isMain":false,"isLocked":false,"isHidden":false,"lockReason":null,"createdAt":"2026-04-04T12:18:06.967","updatedAt":"2026-04-05T04:03:38.237"},{"id":8,"name":"Five Boys Number One","description":"Quán burger ăn đêm quen thuộc, được nhiều khách quốc tế lựa chọn.","imageUrl":"/images/zones/eea96ad8-5c59-4a24-ab8b-04cd0b6f3fc1.jpg","latitude":10.76713094,"longitude":106.69324882,"radius":4,"orderIndex":9,"zoneType":4,"shopId":6,"isActive":true,"isMain":false,"isLocked":false,"isHidden":false,"lockReason":null,"createdAt":"2026-04-04T12:18:06.967","updatedAt":"2026-04-05T04:03:52.84"},{"id":9,"name":"Big Night Out - Bar & Lounge","description":"Bar & lounge sôi động, phù hợp đi nhóm và giải trí về đêm.","imageUrl":"/images/zones/1a554abb-d387-4d84-9bd9-3440ea2caea7.jpg","latitude":10.76711645,"longitude":106.69341110,"radius":5,"orderIndex":10,"zoneType":0,"shopId":7,"isActive":true,"isMain":false,"isLocked":false,"isHidden":false,"lockReason":null,"createdAt":"2026-04-04T12:18:06.967","updatedAt":"2026-04-05T04:04:04.533"},{"id":10,"name":"Đậu hũ nóng cô Thủy","description":"Điểm ăn vặt bình dân nổi tiếng với đậu hũ nóng và món Việt dân dã.","imageUrl":"/images/zones/764f3b22-9123-4173-b8f1-29579b677257.jpg","latitude":10.76567181,"longitude":106.69072487,"radius":5,"orderIndex":11,"zoneType":0,"shopId":8,"isActive":true,"isMain":false,"isLocked":false,"isHidden":false,"lockReason":null,"createdAt":"2026-04-04T12:18:06.967","updatedAt":"2026-04-05T04:04:17.643"},{"id":11,"name":"Nông Thôn Đại Việt - The rice restaurant","description":"Nhà hàng cơm Việt với món quê truyền thống, phù hợp khách gia đình.","imageUrl":"/images/zones/ce912ddc-1a37-4942-b467-5af15fb0ba45.webp","latitude":10.76642937,"longitude":106.69185340,"radius":5,"orderIndex":12,"zoneType":1,"shopId":9,"isActive":true,"isMain":false,"isLocked":false,"isHidden":false,"lockReason":null,"createdAt":"2026-04-04T12:18:06.967","updatedAt":"2026-04-05T04:04:29.253"},{"id":12,"name":"Hair of the Dog","description":"Sôi động thâu đêm.","imageUrl":"/images/zones/e7dc3f95-388e-4841-b4f5-8bb10d678106.jpg","latitude":10.76642740,"longitude":106.69167504,"radius":4,"orderIndex":13,"zoneType":0,"shopId":10,"isActive":true,"isMain":false,"isLocked":false,"isHidden":false,"lockReason":null,"createdAt":"2026-04-04T12:18:06.967","updatedAt":"2026-04-05T04:04:39.817"},{"id":13,"name":"Baba's Kitchen Restaurant","description":"Nhà hàng phục vụ món quốc tế và món Việt dễ ăn, không gian thân thiện.","imageUrl":"/images/zones/ed2019f2-cd0d-4448-b96e-474b07311597.jpg","latitude":10.76547418,"longitude":106.69035137,"radius":5,"orderIndex":14,"zoneType":0,"shopId":11,"isActive":true,"isMain":false,"isLocked":false,"isHidden":false,"lockReason":null,"createdAt":"2026-04-04T12:18:06.967","updatedAt":"2026-04-05T04:04:48.383"},{"id":14,"name":"86 Phố Tây","description":"Góc phố nhìn ra công viên 23/9.","imageUrl":"/images/zones/6467099e-fc82-480e-9ed4-e1f9b728d04b.jpg","latitude":10.76708878,"longitude":106.69316970,"radius":4,"orderIndex":15,"zoneType":0,"shopId":12,"isActive":true,"isMain":false,"isLocked":false,"isHidden":false,"lockReason":null,"createdAt":"2026-04-04T12:18:06.967","updatedAt":"2026-04-05T04:04:57.907"},{"id":15,"name":"BBQ Saigon Night","description":"Quán BBQ về đêm với các món nướng đậm vị, không khí nhộn nhịp.","imageUrl":"/images/zones/725e05ad-e536-46e9-8a30-a82aa4ce02e6.jpg","latitude":10.76634901,"longitude":106.69150338,"radius":4,"orderIndex":16,"zoneType":4,"shopId":13,"isActive":true,"isMain":false,"isLocked":false,"isHidden":false,"lockReason":null,"createdAt":"2026-04-04T12:18:06.967","updatedAt":"2026-04-05T04:05:07.567"},{"id":16,"name":"Bánh Căn Bùi Viện","description":"Điểm ăn vặt chuyên bánh căn nóng giòn, phù hợp trải nghiệm street food.","imageUrl":"/images/zones/ea4379ce-83f3-4a65-b866-a69f80c0eb42.jpg","latitude":10.76675809,"longitude":106.69258699,"radius":5,"orderIndex":17,"zoneType":4,"shopId":14,"isActive":true,"isMain":false,"isLocked":false,"isHidden":false,"lockReason":null,"createdAt":"2026-04-04T12:18:06.967","updatedAt":"2026-04-05T04:05:19.553"},{"id":17,"name":"Crazy Night","description":"Club EDM nổi tiếng, nhạc mạnh, đèn laser sôi động.","imageUrl":"/images/zones/404b7096-75b6-4e7c-b0fc-225df870a0ed.jpg","latitude":10.76636680,"longitude":106.69154428,"radius":4,"orderIndex":18,"zoneType":0,"shopId":15,"isActive":true,"isMain":false,"isLocked":false,"isHidden":false,"lockReason":null,"createdAt":"2026-04-04T12:18:06.967","updatedAt":"2026-04-05T04:05:31.457"},{"id":18,"name":"Station sport bar","description":"Sports bar có màn hình lớn, phù hợp xem trận đấu và tụ tập bạn bè.","imageUrl":"/images/zones/ef94dfbf-54c4-4799-ad38-8e90aeebc7c4.jpg","latitude":10.76637010,"longitude":106.69172332,"radius":5,"orderIndex":19,"zoneType":0,"shopId":16,"isActive":true,"isMain":false,"isLocked":false,"isHidden":false,"lockReason":null,"createdAt":"2026-04-04T12:18:06.967","updatedAt":"2026-04-05T04:05:40.97"},{"id":19,"name":"The View Rooftop Bar","description":"Rooftop bar với tầm nhìn toàn cảnh phố đi bộ Bùi Viện.","imageUrl":"/images/zones/ceb49fd0-4ae7-4a29-bafd-918376999b82.jpg","latitude":10.76584572,"longitude":106.69092804,"radius":4,"orderIndex":20,"zoneType":0,"shopId":17,"isActive":true,"isMain":false,"isLocked":false,"isHidden":false,"lockReason":null,"createdAt":"2026-04-04T12:18:06.967","updatedAt":"2026-04-05T04:05:51.963"}]
